Time(ms),distanceDAM_RTState(m),RedLat(degree),RedLon(degree),RedAlt(m),RedYaw(degree),RedPitch(degree),RedRoll(degree),RedSpeedAir(km/h),RedFlyOverLoad,MissileLat(degree),MissileLon(degree),MissileAlt(m),MissileYaw(degree),MissilePitch(degree),MissileRoll(degree),MissileSpeedAir(km/h),MissileType,RedFlyOverLoadX,RedFlyOverLoadY,RedFlyOverLoadZ,distanceFF(m),AA,AA,AA,AA,RedPlatAttackAngle(degree),RedFlySideslipAng(degree),strickenFlag,damageFlag,AA,AA,AA,AA,AA,AA,AA,AA,AA,AA,AA,synAngRat(degree/s),thetaAngRat(degree/s),phiAngRat(degree/s),synAng_Acc(degree/s^2),thetaAng_Acc(degree/s^2),phiAng_Acc(degree/s^2),PlatOverLoadX,PlatOverLoadY,PlatOverLoadZ,coeT,AA,AA,ViewValid,TrackingState,HitState,OPDrms,AA,AA,TargetLatFake(degree),TargetLonFake(degree),TargetAltFake(m),ladarType
20,22274.208,40.00005,100,11000.04785,0,0,0,277.693,0.879,40.199973,99.99,10000.05371,180,0,0,152.761,0,-0.443306,-8.33E-06,0.759169,0,0,0,0,0,0,0,0,0,0,0,0,0,0,0,0,0,0,0,0,0,0,0,0,0,0,-0.443306,-8.33E-06,0.759169,1,0,0,0,0,0,0,0,0,40.19982055,99.98973759,10023.80185,1
30,22269.916,40.000075,100,11000.04688,0,-0.001,0,277.713,0.788,40.199959,99.99,10000.05176,180,0,0,152.802,0,-0.011254,0.000876177,0.788149,0,0,0,0,0,0,0,0,0,0,0,0,0,0,0,0,0,0,0,0,0,0,0,0,0,0,-0.011254,0.000876177,0.788149,1,0,0,0,0,0,0,0,0,40.19980683,99.98973765,10023.79562,1
40,22265.623,40.0001,100,11000.04688,360,-0.002,0,277.739,0.822,40.199945,99.99,10000.04883,180,-0.001,0,152.859,0,0.172751,0.000757476,0.803424,0,0,0,0,0,0,0,0,0,0,0,0,0,0,0,0,0,0,0,0,0,0,0,0,0,0,0.172751,0.000757476,0.803424,1,0,0,0,0,0,0,0,0,40.1997931,99.9897377,10023.78832,1
50,22261.329,40.000125,100,11000.0459,360,-0.003,-0.001,277.755,0.838,40.199931,99.99,10000.0459,180,-0.001,0,152.906,0,0.16176,0.000640206,0.821788,0,0,0,0,0,0,0,0,0,0,0,0,0,0,0,0,0,0,0,0,0,0,0,0,0,0,0.16176,0.000640206,0.821788,1,0,0,0,0,0,0,0,0,40.19977937,99.98973775,10023.78095,1
60,22257.035,40.00015,100,11000.04492,360,-0.002,-0.001,277.769,0.855,40.199918,99.99,10000.04102,180,-0.002,0,152.952,0,0.150876,0.000571018,0.841977,0,0,0,0,0,0,0,0,0,0,0,0,0,0,0,0,0,0,0,0,0,0,0,0,0,0,0.150876,0.000571018,0.841977,1,0,0,0,0,0,0,0,0,40.19976563,99.9897378,10023.77153,1
70,22252.74,40.000175,100,11000.04297,360,0,-0.002,277.782,0.876,40.199904,99.99,10000.03613,180,-0.003,0,152.999,0,0.140051,0.000504061,0.86425,0,0,0,0,0,0,0,0,0,0,0,0,0,0,0,0,0,0,0,0,0,0,0,0,0,0,0.140051,0.000504061,0.86425,1,0,0,0,0,0,0,0,0,40.19975189,99.98973785,10023.76203,1
80,22248.445,40.0002,100,11000.04199,360,0.003,-0.003,277.796,0.87,40.19989,99.99,10000.03027,180,-0.003,0,153.045,0,0.143701,0.000441568,0.857678,0,0,0,0,0,0,0,0,0,0,0,0,0,0,0,0,0,0,0,0,0,0,0,0,0,0,0.143701,0.000441568,0.857678,1,0,0,0,0,0,0,0,0,40.19973815,99.9897379,10023.75146,1
90,22244.149,40.000224,100,11000.04102,360,0.008,-0.004,277.811,0.863,40.199876,99.99,10000.02441,180,-0.004,0,153.092,0,0.147336,0.000383364,0.850295,0,0,0,0,0,0,0,0,0,0,0,0,0,0,0,0,0,0,0,0,0,0,0,0,0,0,0.147336,0.000383364,0.850295,1,0,0,0,0,0,0,0,0,40.1997244,99.98973795,10023.7408,1
100,22239.852,40.000249,100,11000.03906,360,0.014,-0.005,277.826,0.855,40.199863,99.99,10000.0166,180,-0.005,0,153.138,0,0.150971,0.000329251,0.841723,0,0,0,0,0,0,0,0,0,0,0,0,0,0,0,0,0,0,0,0,0,0,0,0,0,0,0.150971,0.000329251,0.841723,1,0,0,0,0,0,0,0,0,40.20074058,99.9905009,9949.333251,2
110,22235.555,40.000274,100,11000.03711,360,0.02,-0.006,277.84,0.86,40.199849,99.99,10000.00879,180,-0.006,0,153.185,0,0.147392,0.000278876,0.847331,0,0,0,0,0,0,0,0,0,0,0,0,0,0,0,0,0,0,0,0,0,0,0,0,0,0,0.147392,0.000278876,0.847331,1,0,0,0,0,0,0,0,0,40.20072682,99.9905008,9949.334765,2
120,22231.258,40.000299,100,11000.03516,360,0.027,-0.008,277.854,0.871,40.199835,99.99,10000,180,-0.007,0,153.231,0,0.140825,0.000232037,0.859507,0,0,0,0,0,0,0,0,0,0,0,0,0,0,0,0,0,0,0,0,0,0,0,0,0,0,0.140825,0.000232037,0.859507,1,0,0,0,0,0,0,0,0,40.20071306,99.9905007,9949.33542,2
130,22226.96,40.000324,100,11000.0332,360,0.034,-0.01,277.833,0.867,40.199821,99.99,9999.990234,180,-0.008,0,153.278,0,-0.0950617,0.000188608,0.861745,0,0,0,0,0,0,0,0,0,0,0,0,0,0,0,0,0,0,0,0,0,0,0,0,0,0,-0.0950617,0.000188608,0.861745,1,0,0,0,0,0,0,0,0,40.20069929,99.9905006,9949.335216,2
140,22222.662,40.000349,100,11000.03125,360,0.041,-0.011,277.823,0.863,40.199808,99.99,9999.980469,180,-0.009,0,153.324,0,-0.0971776,0.000148313,0.857367,0,0,0,0,0,0,0,0,0,0,0,0,0,0,0,0,0,0,0,0,0,0,0,0,0,0,-0.0971776,0.000148313,0.857367,1,0,0,0,0,0,0,0,0,40.20068553,99.9905005,9949.335126,2
150,22218.363,40.000374,100,11000.0293,359.999,0.049,-0.013,277.813,0.865,40.199794,99.99,9999.969727,180,-0.01,0,153.371,0,-0.102427,0.000110947,0.85885,0,0,0,0,0,0,0,0,0,0,0,0,0,0,0,0,0,0,0,0,0,0,0,0,0,0,-0.102427,0.000110947,0.85885,1,0,0,0,0,0,0,0,0,40.20067175,99.9905004,9949.334155,2
160,22214.064,40.000399,100,11000.02637,359.999,0.057,-0.015,277.801,0.875,40.19978,99.99,9999.958008,180,-0.011,0,153.418,0,-0.109662,7.63E-05,0.868451,0,0,0,0,0,0,0,0,0,0,0,0,0,0,0,0,0,0,0,0,0,0,0,0,0,0,-0.109662,7.63E-05,0.868451,1,0,0,0,0,0,0,0,0,40.20065798,99.99050031,9949.332301,2
170,22209.765,40.000424,100,11000.02441,359.999,0.065,-0.017,277.79,0.882,40.199766,99.99,9999.945313,180,-0.012,0,153.464,0,-0.113464,4.42E-05,0.874908,0,0,0,0,0,0,0,0,0,0,0,0,0,0,0,0,0,0,0,0,0,0,0,0,0,0,-0.113464,4.42E-05,0.874908,1,0,0,0,0,0,0,0,0,40.20064419,99.99050021,9949.329553,2
180,22205.465,40.000449,100,11000.02148,359.999,0.072,-0.019,277.779,0.882,40.199752,99.99,9999.932617,180,-0.013,0,153.511,0,-0.11388,1.46E-05,0.874292,0,0,0,0,0,0,0,0,0,0,0,0,0,0,0,0,0,0,0,0,0,0,0,0,0,0,-0.11388,1.46E-05,0.874292,1,0,0,0,0,0,0,0,0,40.20063041,99.99050012,9949.326899,2
190,22201.165,40.000474,100,11000.01856,359.999,0.08,-0.022,277.767,0.883,40.199739,99.99,9999.918945,180,-0.015,0,153.558,0,-0.115244,-1.27E-05,0.875178,0,0,0,0,0,0,0,0,0,0,0,0,0,0,0,0,0,0,0,0,0,0,0,0,0,0,-0.115244,-1.27E-05,0.875178,1,0,0,0,0,0,0,0,0,40.20061662,99.99050003,9949.323345,2
200,22196.865,40.000499,100,11000.01563,359.999,0.088,-0.024,277.755,0.89,40.199725,99.99,9999.904297,180,-0.016,0,153.605,0,-0.119656,-3.80E-05,0.882235,0,0,0,0,0,0,0,0,0,0,0,0,0,0,0,0,0,0,0,0,0,0,0,0,0,0,-0.119656,-3.80E-05,0.882235,1,0,0,0,0,0,0,0,0,40.20060283,99.99049993,9949.318881,2
210,22192.564,40.000524,100,11000.0127,359.999,0.096,-0.027,277.743,0.898,40.199711,99.99,9999.888672,180,-0.017,0,153.651,0,-0.123868,-6.13E-05,0.889135,0,0,0,0,0,0,0,0,0,0,0,0,0,0,0,0,0,0,0,0,0,0,0,0,0,0,-0.123868,-6.13E-05,0.889135,1,0,0,0,0,0,0,0,0,40.20058903,99.99049984,9949.313508,2
220,22188.263,40.000549,100,11000.00977,359.999,0.103,-0.029,277.73,0.9,40.199697,99.99,9999.873047,180,-0.018,0,153.698,0,-0.125559,-8.27E-05,0.890885,0,0,0,0,0,0,0,0,0,0,0,0,0,0,0,0,0,0,0,0,0,0,0,0,0,0,-0.125559,-8.27E-05,0.890885,1,0,0,0,0,0,0,0,0,40.20057523,99.99049975,9949.308206,2
230,22183.962,40.000574,100,11000.00684,359.999,0.111,-0.032,277.718,0.901,40.199683,99.99,9999.856445,180,-0.02,0,153.745,0,-0.126994,-0.000102288,0.891828,0,0,0,0,0,0,0,0,0,0,0,0,0,0,0,0,0,0,0,0,0,0,0,0,0,0,-0.126994,-0.000102288,0.891828,1,0,0,0,0,0,0,0,0,40.20056142,99.99049966,9949.301987,2
240,22179.661,40.000599,100,11000.00293,359.999,0.118,-0.035,277.704,0.906,40.19967,99.99,9999.838867,180,-0.021,0,153.792,0,-0.131368,-0.000120311,0.896817,0,0,0,0,0,0,0,0,0,0,0,0,0,0,0,0,0,0,0,0,0,0,0,0,0,0,-0.131368,-0.000120311,0.896817,1,0,0,0,0,0,0,0,0,40.20054761,99.99049957,9949.294849,2
250,22175.359,40.000624,100,11000,359.999,0.125,-0.037,277.691,0.913,40.199656,99.99,9999.820313,180,-0.023,0,153.839,0,-0.135384,-0.000136807,0.90308,0,0,0,0,0,0,0,0,0,0,0,0,0,0,0,0,0,0,0,0,0,0,0,0,0,0,-0.135384,-0.000136807,0.90308,1,0,0,0,0,0,0,0,0,40.2005338,99.99049949,9949.286782,2
260,22171.057,40.000649,100,10999.99609,359.999,0.133,-0.04,277.677,0.917,40.199642,99.99,9999.801758,180,-0.024,0,153.886,0,-0.13778,-0.000151805,0.906106,0,0,0,0,0,0,0,0,0,0,0,0,0,0,0,0,0,0,0,0,0,0,0,0,0,0,-0.13778,-0.000151805,0.906106,1,0,0,0,0,0,0,0,0,40.20051998,99.9904994,9949.278774,2
270,22166.755,40.000673,100,10999.99316,359.999,0.14,-0.043,277.663,0.918,40.199628,99.99,9999.782227,180,-0.025,0,153.933,0,-0.139408,-0.000165423,0.907405,0,0,0,0,0,0,0,0,0,0,0,0,0,0,0,0,0,0,0,0,0,0,0,0,0,0,-0.139408,-0.000165423,0.907405,1,0,0,0,0,0,0,0,0,40.20050616,99.99049931,9949.269832,2
280,22162.452,40.000698,100,10999.98926,359.999,0.146,-0.046,277.649,0.922,40.199614,99.99,9999.762695,180,-0.027,0,153.98,0,-0.142194,-0.000177805,0.910951,0,0,0,0,0,0,0,0,0,0,0,0,0,0,0,0,0,0,0,0,0,0,0,0,0,0,-0.142194,-0.000177805,0.910951,1,0,0,0,0,0,0,0,0,40.20049233,99.99049922,9949.260942,2
290,22158.149,40.000723,100,10999.98535,359.999,0.153,-0.049,277.633,0.928,40.199601,99.99,9999.741211,180,-0.028,0,154.027,0,-0.149346,-0.000189013,0.916177,0,0,0,0,0,0,0,0,0,0,0,0,0,0,0,0,0,0,0,0,0,0,0,0,0,0,-0.149346,-0.000189013,0.916177,1,0,0,0,0,0,0,0,0,40.2004785,99.99049914,9949.250133,2
300,22153.846,40.000748,100,10999.98145,359.998,0.159,-0.052,277.618,0.933,40.199587,99.99,9999.719727,180,-0.03,0,154.074,0,-0.154674,-0.00019906,0.919693,0,0,0,0,0,0,0,0,0,0,0,0,0,0,0,0,0,0,0,0,0,0,0,0,0,0,-0.154674,-0.00019906,0.919693,1,0,0,0,0,0,0,0,0,40.20046467,99.99049905,9949.239367,2
310,22149.542,40.000773,100,10999.97754,359.998,0.166,-0.056,277.602,0.935,40.199573,99.99,9999.698242,180,-0.031,0,154.121,0,-0.156474,-0.000208016,0.921357,0,0,0,0,0,0,0,0,0,0,0,0,0,0,0,0,0,0,0,0,0,0,0,0,0,0,-0.156474,-0.000208016,0.921357,1,0,0,0,0,0,0,0,0,40.20045083,99.99049897,9949.228642,2
320,22145.239,40.000798,100,10999.97363,359.998,0.172,-0.059,277.586,0.938,40.199559,99.99,9999.674805,180,-0.033,0,154.168,0,-0.158784,-0.000215996,0.923967,0,0,0,0,0,0,0,0,0,0,0,0,0,0,0,0,0,0,0,0,0,0,0,0,0,0,-0.158784,-0.000215996,0.923967,1,0,0,0,0,0,0,0,0,40.20043699,99.99049888,9949.215992,2
330,22140.935,40.000823,100,10999.96973,359.998,0.178,-0.062,277.57,0.942,40.199545,99.99,9999.651367,180,-0.034,0,154.216,0,-0.161835,-0.000223065,0.928137,0,0,0,0,0,0,0,0,0,0,0,0,0,0,0,0,0,0,0,0,0,0,0,0,0,0,-0.161835,-0.000223065,0.928137,1,0,0,0,0,0,0,0,0,40.20042314,99.9904988,9949.203377,2
340,22136.63,40.000848,100,10999.96582,359.998,0.184,-0.066,277.553,0.946,40.199531,99.99,9999.626953,180,-0.035,0,154.263,0,-0.163337,-0.000229233,0.931647,0,0,0,0,0,0,0,0,0,0,0,0,0,0,0,0,0,0,0,0,0,0,0,0,0,0,-0.163337,-0.000229233,0.931647,1,0,0,0,0,0,0,0,0,40.20040929,99.99049872,9949.189813,2
350,22132.326,40.000873,100,10999.96191,359.998,0.19,-0.069,277.537,0.948,40.199517,99.99,9999.602539,180,-0.037,0,154.31,0,-0.164076,-0.000234538,0.933606,0,0,0,0,0,0,0,0,0,0,0,0,0,0,0,0,0,0,0,0,0,0,0,0,0,0,-0.164076,-0.000234538,0.933606,1,0,0,0,0,0,0,0,0,40.20039543,99.99049863,9949.176281,2
360,22128.021,40.000898,100,10999.95801,359.998,0.195,-0.072,277.52,0.95,40.199504,99.99,9999.577148,180,-0.038,0,154.357,0,-0.164906,-0.000239064,0.935703,0,0,0,0,0,0,0,0,0,0,0,0,0,0,0,0,0,0,0,0,0,0,0,0,0,0,-0.164906,-0.000239064,0.935703,1,0,0,0,0,0,0,0,0,40.20038157,99.99049855,9949.161797,2
370,22123.716,40.000923,100,10999.95313,359.998,0.201,-0.076,277.504,0.954,40.19949,99.99,9999.550781,180,-0.04,0,154.405,0,-0.166287,-0.000242874,0.938959,0,0,0,0,0,0,0,0,0,0,0,0,0,0,0,0,0,0,0,0,0,0,0,0,0,0,-0.166287,-0.000242874,0.938959,1,0,0,0,0,0,0,0,0,40.20036771,99.99049847,9949.146362,2
380,22119.41,40.000948,100,10999.94922,359.998,0.206,-0.079,277.487,0.957,40.199476,99.99,9999.524414,180,-0.041,0,154.452,0,-0.167595,-0.000245981,0.942159,0,0,0,0,0,0,0,0,0,0,0,0,0,0,0,0,0,0,0,0,0,0,0,0,0,0,-0.167595,-0.000245981,0.942159,1,0,0,0,0,0,0,0,0,40.20035384,99.99049839,9949.130948,2
390,22115.105,40.000973,100,10999.94434,359.998,0.211,-0.083,277.469,0.96,40.199462,99.99,9999.49707,180,-0.043,0,154.499,0,-0.173125,-0.000248405,0.944252,0,0,0,0,0,0,0,0,0,0,0,0,0,0,0,0,0,0,0,0,0,0,0,0,0,0,-0.173125,-0.000248405,0.944252,1,0,0,0,0,0,0,0,0,40.20033997,99.9904983,9949.114581,2
400,22110.799,40.000998,100,10999.94043,359.998,0.216,-0.086,277.451,0.963,40.199448,99.99,9999.46875,180,-0.044,0,154.547,0,-0.178478,-0.000250202,0.946063,0,0,0,0,0,0,0,0,0,0,0,0,0,0,0,0,0,0,0,0,0,0,0,0,0,0,-0.178478,-0.000250202,0.946063,1,0,0,0,0,0,0,0,0,40.20032609,99.99049822,9949.097251,2
410,22106.493,40.001022,100,10999.93555,359.998,0.221,-0.09,277.433,0.966,40.199434,99.99,9999.439453,180,-0.046,0,154.594,0,-0.184115,-0.000251428,0.948569,0,0,0,0,0,0,0,0,0,0,0,0,0,0,0,0,0,0,0,0,0,0,0,0,0,0,-0.184115,-0.000251428,0.948569,1,0,0,0,0,0,0,0,0,40.20031221,99.99049814,9949.078963,2
420,22102.186,40.001047,100,10999.93164,359.998,0.225,-0.094,277.414,0.969,40.19942,99.99,9999.410156,180,-0.047,0,154.642,0,-0.186899,-0.000252101,0.95129,0,0,0,0,0,0,0,0,0,0,0,0,0,0,0,0,0,0,0,0,0,0,0,0,0,0,-0.186899,-0.000252101,0.95129,1,0,0,0,0,0,0,0,0,40.20029833,99.99049806,9949.060688,2
430,22097.88,40.001072,100,10999.92676,359.998,0.23,-0.097,277.395,0.972,40.199406,99.99,9999.379883,180,-0.049,0,154.689,0,-0.188758,-0.000252233,0.953341,0,0,0,0,0,0,0,0,0,0,0,0,0,0,0,0,0,0,0,0,0,0,0,0,0,0,-0.188758,-0.000252233,0.953341,1,0,0,0,0,0,0,0,0,40.20028444,99.99049798,9949.041454,2
440,22093.573,40.001097,100,10999.92285,359.998,0.234,-0.101,277.376,0.974,40.199393,99.99,9999.349609,180,-0.05,0,154.737,0,-0.191277,-0.000251862,0.95499,0,0,0,0,0,0,0,0,0,0,0,0,0,0,0,0,0,0,0,0,0,0,0,0,0,0,-0.191277,-0.000251862,0.95499,1,0,0,0,0,0,0,0,0,40.20027055,99.9904979,9949.022231,2
450,22089.266,40.001122,100,10999.91797,359.998,0.239,-0.105,277.356,0.976,40.199379,99.99,9999.318359,180,-0.051,0,154.784,0,-0.1931,-0.000251031,0.957002,0,0,0,0,0,0,0,0,0,0,0,0,0,0,0,0,0,0,0,0,0,0,0,0,0,0,-0.1931,-0.000251031,0.957002,1,0,0,0,0,0,0,0,0,40.20025665,99.99049782,9949.002044,2
460,22084.958,40.001147,100,10999.91309,359.998,0.243,-0.108,277.337,0.979,40.199365,99.99,9999.286133,180,-0.053,-0.001,154.832,0,-0.195024,-0.000249762,0.959284,0,0,0,0,0,0,0,0,0,0,0,0,0,0,0,0,0,0,0,0,0,0,0,0,0,0,-0.195024,-0.000249762,0.959284,1,0,0,0,0,0,0,0,0,40.20024275,99.99049774,9948.980889,2
470,22080.651,40.001172,100,10999.9082,359.998,0.247,-0.112,277.317,0.981,40.199351,99.99,9999.253906,180,-0.054,-0.001,154.879,0,-0.196739,-0.000248063,0.9612,0,0,0,0,0,0,0,0,0,0,0,0,0,0,0,0,0,0,0,0,0,0,0,0,0,0,-0.196739,-0.000248063,0.9612,1,0,0,0,0,0,0,0,0,40.20022884,99.99049766,9948.959745,2
480,22076.343,40.001197,100,10999.9043,359.998,0.251,-0.116,277.297,0.983,40.199337,99.99,9999.220703,180,-0.056,-0.001,154.927,0,-0.197091,-0.000245958,0.962719,0,0,0,0,0,0,0,0,0,0,0,0,0,0,0,0,0,0,0,0,0,0,0,0,0,0,-0.197091,-0.000245958,0.962719,1,0,0,0,0,0,0,0,0,40.20021493,99.99049758,9948.937625,2
490,22072.035,40.001222,100,10999.89941,359.998,0.255,-0.12,277.277,0.984,40.199323,99.99,9999.186523,180,-0.057,-0.001,154.975,0,-0.197484,-0.00024348,0.96436,0,0,0,0,0,0,0,0,0,0,0,0,0,0,0,0,0,0,0,0,0,0,0,0,0,0,-0.197484,-0.00024348,0.96436,1,0,0,0,0,0,0,0,0,40.20020102,99.9904975,9948.914537,2
500,22067.727,40.001247,100,10999.89453,359.997,0.258,-0.124,277.257,0.986,40.199309,99.99,9999.152344,180,-0.058,-0.001,155.022,0,-0.197972,-0.000240652,0.966251,0,0,0,0,0,0,0,0,0,0,0,0,0,0,0,0,0,0,0,0,0,0,0,0,0,0,-0.197972,-0.000240652,0.966251,1,0,0,0,0,0,0,0,0,40.2001871,99.99049742,9948.891455,2
510,22063.418,40.001271,100,10999.88965,359.997,0.262,-0.127,277.237,0.988,40.199295,99.99,9999.117188,180,-0.06,-0.001,155.07,0,-0.199508,-0.000237481,0.967982,0,0,0,0,0,0,0,0,0,0,0,0,0,0,0,0,0,0,0,0,0,0,0,0,0,0,-0.199508,-0.000237481,0.967982,1,0,0,0,0,0,0,0,0,40.20017318,99.99049734,9948.867398,2
520,22059.109,40.001296,100,10999.88477,359.997,0.265,-0.131,277.217,0.99,40.199281,99.99,9999.081055,180,-0.061,-0.001,155.118,0,-0.200858,-0.000233981,0.969379,0,0,0,0,0,0,0,0,0,0,0,0,0,0,0,0,0,0,0,0,0,0,0,0,0,0,-0.200858,-0.000233981,0.969379,1,0,0,0,0,0,0,0,0,40.20015925,99.99049726,9948.842366,2
530,22054.8,40.001321,100,10999.87988,359.997,0.269,-0.135,277.197,0.992,40.199267,99.99,9999.044922,180,-0.063,-0.001,155.166,0,-0.202175,-0.000230178,0.970747,0,0,0,0,0,0,0,0,0,0,0,0,0,0,0,0,0,0,0,0,0,0,0,0,0,0,-0.202175,-0.000230178,0.970747,1,0,0,0,0,0,0,0,0,40.20014532,99.99049718,9948.817337,2
540,22050.491,40.001346,100,10999.875,359.997,0.272,-0.139,277.176,0.993,40.199253,99.99,9999.007813,180,-0.064,-0.001,155.213,0,-0.203551,-0.000226092,0.972288,0,0,0,0,0,0,0,0,0,0,0,0,0,0,0,0,0,0,0,0,0,0,0,0,0,0,-0.203551,-0.000226092,0.972288,1,0,0,0,0,0,0,0,0,40.20013139,99.9904971,9948.791329,2
550,22046.182,40.001371,100,10999.87012,359.997,0.275,-0.143,277.156,0.995,40.199239,99.99,9998.970703,180,-0.065,-0.001,155.261,0,-0.204879,-0.000221731,0.973791,0,0,0,0,0,0,0,0,0,0,0,0,0,0,0,0,0,0,0,0,0,0,0,0,0,0,-0.204879,-0.000221731,0.973791,1,0,0,0,0,0,0,0,0,40.20011745,99.99049702,9948.765323,2
560,22041.872,40.001396,100,10999.86523,359.997,0.279,-0.147,277.135,0.997,40.199226,99.99,9998.932617,180,-0.067,-0.001,155.309,0,-0.206063,-0.000217105,0.975056,0,0,0,0,0,0,0,0,0,0,0,0,0,0,0,0,0,0,0,0,0,0,0,0,0,0,-0.206063,-0.000217105,0.975056,1,0,0,0,0,0,0,0,0,40.2001035,99.99049694,9948.738337,2
570,22037.562,40.001421,100,10999.86035,359.997,0.282,-0.15,277.114,0.998,40.199212,99.99,9998.893555,180,-0.068,-0.001,155.357,0,-0.207179,-0.000212231,0.976225,0,0,0,0,0,0,0,0,0,0,0,0,0,0,0,0,0,0,0,0,0,0,0,0,0,0,-0.207179,-0.000212231,0.976225,1,0,0,0,0,0,0,0,0,40.20008956,99.99049686,9948.710369,2
580,22033.252,40.001446,100,10999.85547,359.997,0.285,-0.154,277.093,0.999,40.199198,99.99,9998.854492,180,-0.069,-0.001,155.405,0,-0.208317,-0.000207128,0.977489,0,0,0,0,0,0,0,0,0,0,0,0,0,0,0,0,0,0,0,0,0,0,0,0,0,0,-0.208317,-0.000207128,0.977489,1,0,0,0,0,0,0,0,0,40.20007561,99.99049678,9948.6824,2
590,22028.942,40.001471,100,10999.85059,359.997,0.287,-0.158,277.072,1.001,40.199184,99.99,9998.814453,180,-0.071,-0.001,155.453,0,-0.209434,-0.000201803,0.978768,0,0,0,0,0,0,0,0,0,0,0,0,0,0,0,0,0,0,0,0,0,0,0,0,0,0,-0.209434,-0.000201803,0.978768,1,0,0,0,0,0,0,0,0,40.20006165,99.9904967,9948.653448,2
600,22024.631,40.001495,100,10999.8457,359.997,0.29,-0.162,277.051,1.002,40.19917,99.99,9998.774414,180,-0.072,-0.001,155.501,0,-0.210083,-0.000196264,0.979892,0,0,0,0,0,0,0,0,0,0,0,0,0,0,0,0,0,0,0,0,0,0,0,0,0,0,-0.210083,-0.000196264,0.979892,1,0,0,0,0,0,0,0,0,40.20004769,99.99049662,9948.624492,2
610,22020.32,40.00152,100,10999.84082,359.997,0.293,-0.166,277.03,1.003,40.199156,99.99,9998.733398,180,-0.073,-0.001,155.549,0,-0.209591,-0.000190524,0.980902,0,0,0,0,0,0,0,0,0,0,0,0,0,0,0,0,0,0,0,0,0,0,0,0,0,0,-0.209591,-0.000190524,0.980902,1,0,0,0,0,0,0,0,0,40.20003373,99.99049654,9948.594552,2
620,22016.009,40.001545,100,10999.83594,359.997,0.296,-0.17,277.009,1.004,40.199142,99.99,9998.691406,180,-0.074,-0.001,155.597,0,-0.207486,-0.000184596,0.981948,0,0,0,0,0,0,0,0,0,0,0,0,0,0,0,0,0,0,0,0,0,0,0,0,0,0,-0.207486,-0.000184596,0.981948,1,0,0,0,0,0,0,0,0,40.20001976,99.99049646,9948.563626,2
630,22011.698,40.00157,100,10999.83106,359.997,0.298,-0.173,276.989,1.004,40.199128,99.99,9998.649414,180,-0.076,-0.001,155.645,0,-0.205408,-0.00017849,0.983032,0,0,0,0,0,0,0,0,0,0,0,0,0,0,0,0,0,0,0,0,0,0,0,0,0,0,-0.205408,-0.00017849,0.983032,1,0,0,0,0,0,0,0,0,40.20000579,99.99049638,9948.532694,2
640,22007.386,40.001595,100,10999.82617,359.997,0.301,-0.177,276.968,1.005,40.199114,99.99,9998.606445,180,-0.077,-0.001,155.693,0,-0.203297,-0.000172212,0.984037,0,0,0,0,0,0,0,0,0,0,0,0,0,0,0,0,0,0,0,0,0,0,0,0,0,0,-0.203297,-0.000172212,0.984037,1,0,0,0,0,0,0,0,0,40.19999181,99.99049631,9948.500775,2
650,22003.075,40.00162,100,10999.82031,359.997,0.303,-0.181,276.948,1.005,40.1991,99.99,9998.5625,180,-0.078,-0.001,155.741,0,-0.201352,-0.00016577,0.984933,0,0,0,0,0,0,0,0,0,0,0,0,0,0,0,0,0,0,0,0,0,0,0,0,0,0,-0.201352,-0.00016577,0.984933,1,0,0,0,0,0,0,0,0,40.19997783,99.99049623,9948.467873,2
660,21998.763,40.001645,100,10999.81543,359.997,0.305,-0.185,276.928,1.006,40.199086,99.99,9998.518555,180,-0.079,-0.001,155.789,0,-0.199705,-0.000159175,0.985815,0,0,0,0,0,0,0,0,0,0,0,0,0,0,0,0,0,0,0,0,0,0,0,0,0,0,-0.199705,-0.000159175,0.985815,1,0,0,0,0,0,0,0,0,40.19996384,99.99049615,9948.434958,2
670,21994.45,40.00167,100,10999.81055,359.997,0.308,-0.189,276.908,1.007,40.199072,99.99,9998.474609,180,-0.081,-0.002,155.837,0,-0.20253,-0.000152435,0.986721,0,0,0,0,0,0,0,0,0,0,0,0,0,0,0,0,0,0,0,0,0,0,0,0,0,0,-0.20253,-0.000152435,0.986721,1,0,0,0,0,0,0,0,0,40.19994985,99.99049607,9948.402035,2
680,21990.138,40.001694,100,10999.80566,359.997,0.31,-0.193,276.887,1.008,40.199058,99.99,9998.428711,180,-0.082,-0.002,155.885,0,-0.202087,-0.000145556,0.987583,0,0,0,0,0,0,0,0,0,0,0,0,0,0,0,0,0,0,0,0,0,0,0,0,0,0,-0.202087,-0.000145556,0.987583,1,0,0,0,0,0,0,0,0,40.19993586,99.99049599,9948.367142,2
690,21985.825,40.001719,100,10999.80078,359.997,0.312,-0.196,276.867,1.009,40.199044,99.99,9998.383789,180,-0.083,-0.002,155.933,0,-0.201602,-0.000138545,0.988329,0,0,0,0,0,0,0,0,0,0,0,0,0,0,0,0,0,0,0,0,0,0,0,0,0,0,-0.201602,-0.000138545,0.988329,1,0,0,0,0,0,0,0,0,40.19992186,99.99049591,9948.333219,2
700,21981.512,40.001744,100,10999.7959,359.997,0.314,-0.2,276.847,1.009,40.19903,99.99,9998.336914,180,-0.084,-0.002,155.982,0,-0.201124,-0.000131409,0.989054,0,0,0,0,0,0,0,0,0,0,0,0,0,0,0,0,0,0,0,0,0,0,0,0,0,0,-0.201124,-0.000131409,0.989054,1,0,0,0,0,0,0,0,0,40.19990786,99.99049582,9948.297325,2
710,21977.199,40.001769,100,10999.79004,359.997,0.316,-0.204,276.827,1.01,40.199016,99.99,9998.290039,180,-0.085,-0.002,156.03,0,-0.200677,-0.000124158,0.989815,0,0,0,0,0,0,0,0,0,0,0,0,0,0,0,0,0,0,0,0,0,0,0,0,0,0,-0.200677,-0.000124158,0.989815,1,0,0,0,0,0,0,0,0,40.19989385,99.99049574,9948.261423,2
720,21972.886,40.001794,100,10999.78516,359.997,0.318,-0.208,276.806,1.011,40.199002,99.99,9998.243164,180.001,-0.087,-0.002,156.078,0,-0.200229,-0.000116795,0.99055,0,0,0,0,0,0,0,0,0,0,0,0,0,0,0,0,0,0,0,0,0,0,0,0,0,0,-0.200229,-0.000116795,0.99055,1,0,0,0,0,0,0,0,0,40.19987984,99.99049566,9948.225506,2
730,21968.572,40.001819,100,10999.78027,359.997,0.32,-0.212,276.786,1.011,40.198988,99.99,9998.195313,180.001,-0.088,-0.002,156.126,0,-0.199752,-0.000109325,0.991198,0,0,0,0,0,0,0,0,0,0,0,0,0,0,0,0,0,0,0,0,0,0,0,0,0,0,-0.199752,-0.000109325,0.991198,1,0,0,0,0,0,0,0,0,40.19986583,99.99049558,9948.188597,2
740,21964.258,40.001844,100,10999.77539,359.997,0.322,-0.215,276.766,1.012,40.198974,99.99,9998.146484,180.001,-0.089,-0.002,156.175,0,-0.199269,-0.000101755,0.991805,0,0,0,0,0,0,0,0,0,0,0,0,0,0,0,0,0,0,0,0,0,0,0,0,0,0,-0.199269,-0.000101755,0.991805,1,0,0,0,0,0,0,0,0,40.19985181,99.9904955,9948.150694,2
750,21959.944,40.001868,100,10999.77051,359.997,0.324,-0.219,276.746,1.012,40.19896,99.99,9998.097656,180.001,-0.09,-0.002,156.223,0,-0.198806,-9.41E-05,0.992428,0,0,0,0,0,0,0,0,0,0,0,0,0,0,0,0,0,0,0,0,0,0,0,0,0,0,-0.198806,-9.41E-05,0.992428,1,0,0,0,0,0,0,0,0,40.19983779,99.99049542,9948.112778,2
760,21955.63,40.001893,100,10999.76465,359.997,0.325,-0.223,276.726,1.014,40.198946,99.99,9998.047852,180.001,-0.091,-0.002,156.272,0,-0.203169,-8.63E-05,0.993043,0,0,0,0,0,0,0,0,0,0,0,0,0,0,0,0,0,0,0,0,0,0,0,0,0,0,-0.203169,-8.63E-05,0.993043,1,0,0,0,0,0,0,0,0,40.19982376,99.99049534,9948.073872,2
770,21951.315,40.001918,100,10999.75977,359.997,0.327,-0.227,276.705,1.014,40.198932,99.99,9997.998047,180.001,-0.092,-0.002,156.32,0,-0.204421,-7.85E-05,0.993598,0,0,0,0,0,0,0,0,0,0,0,0,0,0,0,0,0,0,0,0,0,0,0,0,0,0,-0.204421,-7.85E-05,0.993598,1,0,0,0,0,0,0,0,0,40.19980973,99.99049526,9948.034948,2
780,21947,40.001943,100,10999.75488,359.997,0.329,-0.23,276.684,1.015,40.198918,99.99,9997.947266,180.001,-0.093,-0.002,156.368,0,-0.203916,-7.06E-05,0.994074,0,0,0,0,0,0,0,0,0,0,0,0,0,0,0,0,0,0,0,0,0,0,0,0,0,0,-0.203916,-7.06E-05,0.994074,1,0,0,0,0,0,0,0,0,40.19979569,99.99049518,9947.995029,2
790,21942.685,40.001968,100,10999.75,359.997,0.33,-0.234,276.664,1.015,40.198904,99.99,9997.895508,180.001,-0.094,-0.002,156.417,0,-0.203428,-6.26E-05,0.99456,0,0,0,0,0,0,0,0,0,0,0,0,0,0,0,0,0,0,0,0,0,0,0,0,0,0,-0.203428,-6.26E-05,0.99456,1,0,0,0,0,0,0,0,0,40.19978165,99.9904951,9947.954114,2
800,21938.37,40.001993,100,10999.74512,359.997,0.332,-0.238,276.643,1.016,40.19889,99.99,9997.84375,180.001,-0.096,-0.002,156.465,0,-0.202969,-5.45E-05,0.995082,0,0,0,0,0,0,0,0,0,0,0,0,0,0,0,0,0,0,0,0,0,0,0,0,0,0,-0.202969,-5.45E-05,0.995082,1,0,0,0,0,0,0,0,0,40.19976761,99.99049501,9947.913184,2
810,21934.054,40.002018,100,10999.73926,359.997,0.333,-0.241,276.623,1.016,40.198876,99.99,9997.791992,180.001,-0.097,-0.003,156.514,0,-0.200861,-4.64E-05,0.995567,0,0,0,0,0,0,0,0,0,0,0,0,0,0,0,0,0,0,0,0,0,0,0,0,0,0,-0.200861,-4.64E-05,0.995567,1,0,0,0,0,0,0,0,0,40.19975356,99.99049493,9947.872243,2
820,21929.739,40.002042,100,10999.73438,359.997,0.335,-0.245,276.603,1.016,40.198862,99.99,9997.739258,180.001,-0.098,-0.003,156.562,0,-0.198719,-3.82E-05,0.995978,0,0,0,0,0,0,0,0,0,0,0,0,0,0,0,0,0,0,0,0,0,0,0,0,0,0,-0.198719,-3.82E-05,0.995978,1,0,0,0,0,0,0,0,0,40.19973951,99.99049485,9947.830301,2
830,21925.423,40.002067,100,10999.72949,359.997,0.336,-0.249,276.584,1.016,40.198847,99.99,9997.685547,180.001,-0.099,-0.003,156.611,0,-0.196576,-3.00E-05,0.996383,0,0,0,0,0,0,0,0,0,0,0,0,0,0,0,0,0,0,0,0,0,0,0,0,0,0,-0.196576,-3.00E-05,0.996383,1,0,0,0,0,0,0,0,0,40.19972545,99.99049477,9947.787362,2
840,21921.106,40.002092,100,10999.72461,359.997,0.338,-0.252,276.564,1.016,40.198833,99.99,9997.631836,180.001,-0.1,-0.003,156.659,0,-0.194447,-2.17E-05,0.996816,0,0,0,0,0,0,0,0,0,0,0,0,0,0,0,0,0,0,0,0,0,0,0,0,0,0,-0.194447,-2.17E-05,0.996816,1,0,0,0,0,0,0,0,0,40.19971139,99.99049468,9947.744406,2
850,21916.79,40.002117,100,10999.71875,359.997,0.339,-0.256,276.544,1.016,40.198819,99.99,9997.577148,180.001,-0.101,-0.003,156.708,0,-0.196241,-1.33E-05,0.997227,0,0,0,0,0,0,0,0,0,0,0,0,0,0,0,0,0,0,0,0,0,0,0,0,0,0,-0.196241,-1.33E-05,0.997227,1,0,0,0,0,0,0,0,0,40.19969732,99.9904946,9947.700457,2
860,21912.473,40.002142,100,10999.71387,359.997,0.34,-0.259,276.524,1.017,40.198805,99.99,9997.522461,180.001,-0.102,-0.003,156.757,0,-0.195754,-4.94E-06,0.997581,0,0,0,0,0,0,0,0,0,0,0,0,0,0,0,0,0,0,0,0,0,0,0,0,0,0,-0.195754,-4.94E-06,0.997581,1,0,0,0,0,0,0,0,0,40.19968325,99.99049452,9947.656486,2
870,21908.156,40.002167,100,10999.70898,359.997,0.342,-0.263,276.505,1.017,40.198791,99.99,9997.466797,180.001,-0.103,-0.003,156.805,0,-0.195254,3.50E-06,0.997886,0,0,0,0,0,0,0,0,0,0,0,0,0,0,0,0,0,0,0,0,0,0,0,0,0,0,-0.195254,3.50E-06,0.997886,1,0,0,0,0,0,0,0,0,40.19966918,99.99049444,9947.611517,2
880,21903.839,40.002191,100,10999.7041,359.997,0.343,-0.266,276.485,1.017,40.198777,99.99,9997.411133,180.001,-0.104,-0.003,156.854,0,-0.194772,1.20E-05,0.998212,0,0,0,0,0,0,0,0,0,0,0,0,0,0,0,0,0,0,0,0,0,0,0,0,0,0,-0.194772,1.20E-05,0.998212,1,0,0,0,0,0,0,0,0,40.1996551,99.99049435,9947.566531,2
890,21899.521,40.002216,100,10999.69922,359.997,0.344,-0.27,276.465,1.017,40.198763,99.99,9997.354492,180.001,-0.105,-0.003,156.903,0,-0.194305,2.05E-05,0.998552,0,0,0,0,0,0,0,0,0,0,0,0,0,0,0,0,0,0,0,0,0,0,0,0,0,0,-0.194305,2.05E-05,0.998552,1,0,0,0,0,0,0,0,0,40.19964102,99.99049427,9947.520545,2
900,21895.204,40.002241,100,10999.69336,359.997,0.345,-0.273,276.446,1.017,40.198749,99.99,9997.297852,180.001,-0.106,-0.003,156.951,0,-0.193823,2.90E-05,0.99885,0,0,0,0,0,0,0,0,0,0,0,0,0,0,0,0,0,0,0,0,0,0,0,0,0,0,-0.193823,2.90E-05,0.99885,1,0,0,0,0,0,0,0,0,40.19962693,99.99049418,9947.474546,2
910,21890.886,40.002266,100,10999.68848,359.997,0.346,-0.277,276.427,1.017,40.198735,99.99,9997.240234,180.001,-0.107,-0.003,157,0,-0.191666,3.76E-05,0.999102,0,0,0,0,0,0,0,0,0,0,0,0,0,0,0,0,0,0,0,0,0,0,0,0,0,0,-0.191666,3.76E-05,0.999102,1,0,0,0,0,0,0,0,0,40.19961284,99.9904941,9947.427543,2
920,21886.567,40.002291,100,10999.68359,359.997,0.348,-0.28,276.408,1.017,40.198721,99.99,9997.182617,180.001,-0.108,-0.004,157.049,0,-0.189508,4.62E-05,0.999354,0,0,0,0,0,0,0,0,0,0,0,0,0,0,0,0,0,0,0,0,0,0,0,0,0,0,-0.189508,4.62E-05,0.999354,1,0,0,0,0,0,0,0,0,40.19959875,99.99049402,9947.380521,2
930,21882.249,40.002315,100,10999.67871,359.997,0.349,-0.284,276.389,1.017,40.198707,99.99,9997.124023,180.001,-0.109,-0.004,157.098,0,-0.18736,5.49E-05,0.99963,0,0,0,0,0,0,0,0,0,0,0,0,0,0,0,0,0,0,0,0,0,0,0,0,0,0,-0.18736,5.49E-05,0.99963,1,0,0,0,0,0,0,0,0,40.19958465,99.99049393,9947.332499,2
940,21877.93,40.00234,100,10999.67383,359.997,0.35,-0.287,276.37,1.017,40.198693,99.99,9997.064453,180.001,-0.11,-0.004,157.146,0,-0.185414,6.35E-05,0.999888,0,0,0,0,0,0,0,0,0,0,0,0,0,0,0,0,0,0,0,0,0,0,0,0,0,0,-0.185414,6.35E-05,0.999888,1,0,0,0,0,0,0,0,0,40.19957054,99.99049385,9947.283478,2
950,21873.611,40.002365,100,10999.66797,359.997,0.351,-0.29,276.351,1.017,40.198678,99.99,9997.004883,180.001,-0.111,-0.004,157.195,0,-0.183738,7.22E-05,1.0001,0,0,0,0,0,0,0,0,0,0,0,0,0,0,0,0,0,0,0,0,0,0,0,0,0,0,-0.183738,7.22E-05,1.0001,1,0,0,0,0,0,0,0,0,40.19955644,99.99049376,9947.234441,2
960,21869.292,40.00239,100,10999.66309,359.997,0.352,-0.294,276.332,1.018,40.198664,99.99,9996.945313,180.001,-0.112,-0.004,157.244,0,-0.18831,8.09E-05,1.0003,0,0,0,0,0,0,0,0,0,0,0,0,0,0,0,0,0,0,0,0,0,0,0,0,0,0,-0.18831,8.09E-05,1.0003,1,0,0,0,0,0,0,0,0,40.19954232,99.99049368,9947.185381,2
970,21864.972,40.002415,100,10999.6582,359.997,0.353,-0.297,276.313,1.018,40.19865,99.99,9996.884766,180.001,-0.113,-0.004,157.293,0,-0.189353,8.96E-05,1.00051,0,0,0,0,0,0,0,0,0,0,0,0,0,0,0,0,0,0,0,0,0,0,0,0,0,0,-0.189353,8.96E-05,1.00051,1,0,0,0,0,0,0,0,0,40.19952821,99.99049359,9947.135321,2
980,21860.653,40.00244,100,10999.65332,359.997,0.354,-0.3,276.294,1.018,40.198636,99.99,9996.824219,180.001,-0.114,-0.004,157.342,0,-0.188855,9.84E-05,1.00067,0,0,0,0,0,0,0,0,0,0,0,0,0,0,0,0,0,0,0,0,0,0,0,0,0,0,-0.188855,9.84E-05,1.00067,1,0,0,0,0,0,0,0,0,40.19951409,99.9904935,9947.08524,2
990,21856.333,40.002464,100,10999.64844,359.997,0.355,-0.304,276.275,1.018,40.198622,99.99,9996.762695,180.001,-0.115,-0.004,157.391,0,-0.188354,0.00010709,1.00081,0,0,0,0,0,0,0,0,0,0,0,0,0,0,0,0,0,0,0,0,0,0,0,0,0,0,-0.188354,0.00010709,1.00081,1,0,0,0,0,0,0,0,0,40.19949996,99.99049342,9947.034159,2
1000,21852.012,40.002489,100,10999.64356,359.997,0.355,-0.307,276.256,1.018,40.198608,99.99,9996.700195,180.001,-0.115,-0.004,157.44,0,-0.187872,0.000115837,1.00098,0,0,0,0,0,0,0,0,0,0,0,0,0,0,0,0,0,0,0,0,0,0,0,0,0,0,-0.187872,0.000115837,1.00098,1,0,0,0,0,0,0,0,0,40.19948583,99.99049333,9946.982077,2
1010,21847.692,40.002514,100,10999.6377,359.997,0.356,-0.31,276.237,1.018,40.198594,99.99,9996.637695,180.001,-0.116,-0.004,157.489,0,-0.18573,0.000124591,1.00115,0,0,0,0,0,0,0,0,0,0,0,0,0,0,0,0,0,0,0,0,0,0,0,0,0,0,-0.18573,0.000124591,1.00115,1,0,0,0,0,0,0,0,0,40.1994717,99.99049325,9946.929979,2
1020,21843.371,40.002539,100,10999.63281,359.997,0.357,-0.313,276.219,1.018,40.19858,99.99,9996.575195,180.001,-0.117,-0.005,157.538,0,-0.183565,0.000133351,1.00128,0,0,0,0,0,0,0,0,0,0,0,0,0,0,0,0,0,0,0,0,0,0,0,0,0,0,-0.183565,0.000133351,1.00128,1,0,0,0,0,0,0,0,0,40.19945756,99.99049316,9946.877856,2
1030,21839.05,40.002564,100,10999.62793,359.997,0.358,-0.317,276.2,1.018,40.198565,99.99,9996.511719,180.001,-0.118,-0.005,157.587,0,-0.181389,0.000142115,1.00139,0,0,0,0,0,0,0,0,0,0,0,0,0,0,0,0,0,0,0,0,0,0,0,0,0,0,-0.181389,0.000142115,1.00139,1,0,0,0,0,0,0,0,0,40.19944342,99.99049307,9946.824733,2
1040,21834.729,40.002588,100,10999.62305,359.997,0.359,-0.32,276.182,1.017,40.198551,99.99,9996.448242,180.001,-0.119,-0.005,157.636,0,-0.179216,0.00015088,1.00152,0,0,0,0,0,0,0,0,0,0,0,0,0,0,0,0,0,0,0,0,0,0,0,0,0,0,-0.179216,0.00015088,1.00152,1,0,0,0,0,0,0,0,0,40.19942927,99.99049298,9946.771588,2
1050,21830.407,40.002613,100,10999.61816,359.997,0.359,-0.323,276.164,1.017,40.198537,99.99,9996.383789,180.001,-0.12,-0.005,157.685,0,-0.177091,0.000159645,1.00165,0,0,0,0,0,0,0,0,0,0,0,0,0,0,0,0,0,0,0,0,0,0,0,0,0,0,-0.177091,0.000159645,1.00165,1,0,0,0,0,0,0,0,0,40.19941512,99.9904929,9946.717443,2
1060,21826.085,40.002638,100,10999.61328,359.997,0.36,-0.326,276.146,1.017,40.198523,99.99,9996.318359,180.001,-0.121,-0.005,157.734,0,-0.177223,0.000168407,1.00176,0,0,0,0,0,0,0,0,0,0,0,0,0,0,0,0,0,0,0,0,0,0,0,0,0,0,-0.177223,0.000168407,1.00176,1,0,0,0,0,0,0,0,0,40.19940097,99.99049281,9946.662296,2
1070,21821.763,40.002663,100,10999.6084,359.997,0.361,-0.329,276.128,1.017,40.198509,99.99,9996.253906,180.001,-0.122,-0.005,157.783,0,-0.176736,0.000177166,1.00184,0,0,0,0,0,0,0,0,0,0,0,0,0,0,0,0,0,0,0,0,0,0,0,0,0,0,-0.176736,0.000177166,1.00184,1,0,0,0,0,0,0,0,0,40.19938681,99.99049272,9946.608109,2
1080,21817.441,40.002688,100,10999.60254,359.997,0.362,-0.332,276.11,1.017,40.198495,99.99,9996.1875,180.001,-0.123,-0.005,157.832,0,-0.176249,0.00018592,1.00192,0,0,0,0,0,0,0,0,0,0,0,0,0,0,0,0,0,0,0,0,0,0,0,0,0,0,-0.176249,0.00018592,1.00192,1,0,0,0,0,0,0,0,0,40.19937264,99.99049263,9946.551943,2
1090,21813.118,40.002712,100,10999.59766,359.997,0.362,-0.335,276.093,1.017,40.198481,99.99,9996.121094,180.001,-0.124,-0.005,157.881,0,-0.175767,0.000194666,1.002,0,0,0,0,0,0,0,0,0,0,0,0,0,0,0,0,0,0,0,0,0,0,0,0,0,0,-0.175767,0.000194666,1.002,1,0,0,0,0,0,0,0,0,40.19935848,99.99049254,9946.495753,2
1100,21808.795,40.002737,100,10999.59277,359.997,0.363,-0.338,276.075,1.017,40.198466,99.99,9996.054688,180.001,-0.124,-0.005,157.93,0,-0.175285,0.000203404,1.00207,0,0,0,0,0,0,0,0,0,0,0,0,0,0,0,0,0,0,0,0,0,0,0,0,0,0,-0.175285,0.000203404,1.00207,1,0,0,0,0,0,0,0,0,40.1993443,99.99049245,9946.439542,2
1110,21804.472,40.002762,100,10999.58789,359.997,0.364,-0.341,276.056,1.018,40.198452,99.99,9995.987305,180.001,-0.125,-0.006,157.979,0,-0.1797,0.000212132,1.00213,0,0,0,0,0,0,0,0,0,0,0,0,0,0,0,0,0,0,0,0,0,0,0,0,0,0,-0.1797,0.000212132,1.00213,1,0,0,0,0,0,0,0,0,40.19933013,99.99049237,9946.382329,2
1120,21800.148,40.002787,100,10999.58301,359.997,0.364,-0.344,276.038,1.018,40.198438,99.99,9995.919922,180.001,-0.126,-0.006,158.029,0,-0.180967,0.000220848,1.00217,0,0,0,0,0,0,0,0,0,0,0,0,0,0,0,0,0,0,0,0,0,0,0,0,0,0,-0.180967,0.000220848,1.00217,1,0,0,0,0,0,0,0,0,40.19789379,99.98908148,10078.27576,1
1130,21795.825,40.002812,100,10999.57813,359.997,0.365,-0.347,276.02,1.018,40.198424,99.99,9995.851563,180.001,-0.127,-0.006,158.078,0,-0.180462,0.000229551,1.00218,0,0,0,0,0,0,0,0,0,0,0,0,0,0,0,0,0,0,0,0,0,0,0,0,0,0,-0.180462,0.000229551,1.00218,1,0,0,0,0,0,0,0,0,40.1978796,99.98908162,10078.18807,1
1140,21791.501,40.002836,100,10999.57324,359.997,0.366,-0.35,276.001,1.018,40.19841,99.99,9995.783203,180.001,-0.128,-0.006,158.127,0,-0.179965,0.00023824,1.0022,0,0,0,0,0,0,0,0,0,0,0,0,0,0,0,0,0,0,0,0,0,0,0,0,0,0,-0.179965,0.00023824,1.0022,1,0,0,0,0,0,0,0,0,40.19786541,99.98908176,10078.10042,1
1150,21787.176,40.002861,100,10999.56836,359.997,0.366,-0.353,275.983,1.018,40.198395,99.99,9995.714844,180.001,-0.129,-0.006,158.176,0,-0.179485,0.000246914,1.00225,0,0,0,0,0,0,0,0,0,0,0,0,0,0,0,0,0,0,0,0,0,0,0,0,0,0,-0.179485,0.000246914,1.00225,1,0,0,0,0,0,0,0,0,40.19785122,99.98908191,10078.0128,1
1160,21782.852,40.002886,100,10999.56348,359.997,0.367,-0.356,275.965,1.018,40.198381,99.99,9995.645508,180.002,-0.129,-0.006,158.226,0,-0.177333,0.000255572,1.00229,0,0,0,0,0,0,0,0,0,0,0,0,0,0,0,0,0,0,0,0,0,0,0,0,0,0,-0.177333,0.000255572,1.00229,1,0,0,0,0,0,0,0,0,40.19783702,99.98908205,10077.92425,1
1170,21778.527,40.002911,100,10999.55859,359.997,0.367,-0.359,275.948,1.017,40.198367,99.99,9995.575195,180.002,-0.13,-0.006,158.275,0,-0.175158,0.000264211,1.00229,0,0,0,0,0,0,0,0,0,0,0,0,0,0,0,0,0,0,0,0,0,0,0,0,0,0,-0.175158,0.000264211,1.00229,1,0,0,0,0,0,0,0,0,40.19782282,99.9890822,10077.83476,1
1180,21774.202,40.002935,100,10999.55371,359.997,0.368,-0.362,275.93,1.017,40.198353,99.99,9995.504883,180.002,-0.131,-0.006,158.324,0,-0.173142,0.000272833,1.00229,0,0,0,0,0,0,0,0,0,0,0,0,0,0,0,0,0,0,0,0,0,0,0,0,0,0,-0.173142,0.000272833,1.00229,1,0,0,0,0,0,0,0,0,40.19780862,99.98908235,10077.74531,1
1190,21769.877,40.00296,100,10999.54883,359.997,0.368,-0.364,275.913,1.017,40.198339,99.99,9995.43457,180.002,-0.132,-0.007,158.374,0,-0.171476,0.000281434,1.00232,0,0,0,0,0,0,0,0,0,0,0,0,0,0,0,0,0,0,0,0,0,0,0,0,0,0,-0.171476,0.000281434,1.00232,1,0,0,0,0,0,0,0,0,40.19779441,99.98908249,10077.65589,1
1200,21765.551,40.002985,100,10999.54395,359.997,0.369,-0.367,275.895,1.017,40.198324,99.99,9995.363281,180.002,-0.133,-0.007,158.423,0,-0.170412,0.000290015,1.00234,0,0,0,0,0,0,0,0,0,0,0,0,0,0,0,0,0,0,0,0,0,0,0,0,0,0,-0.170412,0.000290015,1.00234,1,0,0,0,0,0,0,0,0,40.19778019,99.98908264,10077.56554,1
1210,21761.225,40.00301,100,10999.53906,359.997,0.369,-0.37,275.878,1.017,40.19831,99.99,9995.291016,180.002,-0.134,-0.007,158.472,0,-0.172156,0.000298573,1.00234,0,0,0,0,0,0,0,0,0,0,0,0,0,0,0,0,0,0,0,0,0,0,0,0,0,0,-0.172156,0.000298573,1.00234,1,0,0,0,0,0,0,0,0,40.19776598,99.98908279,10077.47425,1
1220,21756.899,40.003035,100,10999.5332,359.997,0.37,-0.373,275.86,1.017,40.198296,99.99,9995.219727,180.002,-0.134,-0.007,158.522,0,-0.171664,0.000307107,1.00232,0,0,0,0,0,0,0,0,0,0,0,0,0,0,0,0,0,0,0,0,0,0,0,0,0,0,-0.171664,0.000307107,1.00232,1,0,0,0,0,0,0,0,0,40.19775175,99.98908294,10077.38396,1
1230,21752.573,40.003059,100,10999.52832,359.997,0.37,-0.375,275.843,1.017,40.198282,99.99,9995.146484,180.002,-0.135,-0.007,158.571,0,-0.171173,0.000315617,1.0023,0,0,0,0,0,0,0,0,0,0,0,0,0,0,0,0,0,0,0,0,0,0,0,0,0,0,-0.171173,0.000315617,1.0023,1,0,0,0,0,0,0,0,0,40.19773753,99.98908308,10077.29177,1
1240,21748.246,40.003084,100,10999.52344,359.997,0.371,-0.378,275.826,1.017,40.198267,99.99,9995.074219,180.002,-0.136,-0.007,158.621,0,-0.17069,0.000324102,1.00228,0,0,0,0,0,0,0,0,0,0,0,0,0,0,0,0,0,0,0,0,0,0,0,0,0,0,-0.17069,0.000324102,1.00228,1,0,0,0,0,0,0,0,0,40.1977233,99.98908323,10077.20058,1
1250,21743.919,40.003109,100,10999.51856,359.997,0.371,-0.381,275.808,1.017,40.198253,99.99,9995.000977,180.002,-0.137,-0.007,158.67,0,-0.174631,0.000332561,1.00227,0,0,0,0,0,0,0,0,0,0,0,0,0,0,0,0,0,0,0,0,0,0,0,0,0,0,-0.174631,0.000332561,1.00227,1,0,0,0,0,0,0,0,0,40.19770906,99.98908338,10077.10846,1
1260,21739.592,40.003134,100,10999.51367,359.997,0.372,-0.383,275.79,1.017,40.198239,99.99,9994.926758,180.002,-0.138,-0.007,158.72,0,-0.174139,0.000340992,1.00224,0,0,0,0,0,0,0,0,0,0,0,0,0,0,0,0,0,0,0,0,0,0,0,0,0,0,-0.174139,0.000340992,1.00224,1,0,0,0,0,0,0,0,0,40.19769482,99.98908353,10077.0154,1
1270,21735.264,40.003158,100,10999.50879,359.997,0.372,-0.386,275.772,1.017,40.198225,99.99,9994.852539,180.002,-0.138,-0.008,158.769,0,-0.173632,0.000349395,1.00218,0,0,0,0,0,0,0,0,0,0,0,0,0,0,0,0,0,0,0,0,0,0,0,0,0,0,-0.173632,0.000349395,1.00218,1,0,0,0,0,0,0,0,0,40.19768058,99.98908368,10076.92238,1
1280,21730.936,40.003183,100,10999.50391,359.997,0.372,-0.389,275.755,1.017,40.198211,99.99,9994.77832,180.002,-0.139,-0.008,158.819,0,-0.173141,0.00035777,1.00213,0,0,0,0,0,0,0,0,0,0,0,0,0,0,0,0,0,0,0,0,0,0,0,0,0,0,-0.173141,0.00035777,1.00213,1,0,0,0,0,0,0,0,0,40.19766633,99.98908383,10076.82939,1
1290,21726.608,40.003208,100,10999.49902,359.997,0.373,-0.391,275.737,1.017,40.198196,99.99,9994.703125,180.002,-0.14,-0.008,158.868,0,-0.172666,0.000366115,1.00212,0,0,0,0,0,0,0,0,0,0,0,0,0,0,0,0,0,0,0,0,0,0,0,0,0,0,-0.172666,0.000366115,1.00212,1,0,0,0,0,0,0,0,0,40.19765208,99.98908398,10076.73547,1
1300,21722.28,40.003233,100,10999.49414,359.997,0.373,-0.394,275.72,1.017,40.198182,99.99,9994.62793,180.002,-0.141,-0.008,158.918,0,-0.172182,0.000374431,1.00209,0,0,0,0,0,0,0,0,0,0,0,0,0,0,0,0,0,0,0,0,0,0,0,0,0,0,-0.172182,0.000374431,1.00209,1,0,0,0,0,0,0,0,0,40.19763782,99.98908413,10076.64158,1
1310,21717.951,40.003257,100,10999.48926,359.997,0.374,-0.396,275.702,1.017,40.198168,99.99,9994.551758,180.002,-0.141,-0.008,158.967,0,-0.173872,0.000382714,1.00202,0,0,0,0,0,0,0,0,0,0,0,0,0,0,0,0,0,0,0,0,0,0,0,0,0,0,-0.173872,0.000382714,1.00202,1,0,0,0,0,0,0,0,0,40.19762356,99.98908429,10076.54675,1
1320,21713.622,40.003282,100,10999.48535,359.997,0.374,-0.399,275.684,1.017,40.198153,99.99,9994.475586,180.002,-0.142,-0.008,159.017,0,-0.173377,0.000390966,1.00196,0,0,0,0,0,0,0,0,0,0,0,0,0,0,0,0,0,0,0,0,0,0,0,0,0,0,-0.173377,0.000390966,1.00196,1,0,0,0,0,0,0,0,0,40.1976093,99.98908444,10076.45196,1
1330,21709.293,40.003307,100,10999.48047,359.997,0.374,-0.401,275.667,1.017,40.198139,99.99,9994.398438,180.002,-0.143,-0.008,159.067,0,-0.172888,0.000399185,1.00191,0,0,0,0,0,0,0,0,0,0,0,0,0,0,0,0,0,0,0,0,0,0,0,0,0,0,-0.172888,0.000399185,1.00191,1,0,0,0,0,0,0,0,0,40.19759503,99.98908459,10076.35622,1
1340,21704.963,40.003332,100,10999.47559,359.997,0.375,-0.404,275.649,1.017,40.198125,99.99,9994.321289,180.002,-0.144,-0.008,159.116,0,-0.172403,0.000407372,1.00187,0,0,0,0,0,0,0,0,0,0,0,0,0,0,0,0,0,0,0,0,0,0,0,0,0,0,-0.172403,0.000407372,1.00187,1,0,0,0,0,0,0,0,0,40.19758076,99.98908474,10076.26052,1
1350,21700.634,40.003356,100,10999.4707,359.997,0.375,-0.406,275.632,1.016,40.198111,99.99,9994.244141,180.002,-0.144,-0.009,159.166,0,-0.171915,0.000415524,1.00181,0,0,0,0,0,0,0,0,0,0,0,0,0,0,0,0,0,0,0,0,0,0,0,0,0,0,-0.171915,0.000415524,1.00181,1,0,0,0,0,0,0,0,0,40.19756648,99.9890849,10076.16486,1
1360,21696.304,40.003381,100,10999.46582,359.997,0.375,-0.408,275.614,1.016,40.198096,99.99,9994.166016,180.002,-0.145,-0.009,159.216,0,-0.169767,0.000423642,1.00174,0,0,0,0,0,0,0,0,0,0,0,0,0,0,0,0,0,0,0,0,0,0,0,0,0,0,-0.169767,0.000423642,1.00174,1,0,0,0,0,0,0,0,0,40.1975522,99.98908505,10076.06826,1
1370,21691.973,40.003406,100,10999.46094,359.997,0.376,-0.411,275.597,1.016,40.198082,99.99,9994.087891,180.002,-0.146,-0.009,159.265,0,-0.167614,0.000431726,1.00168,0,0,0,0,0,0,0,0,0,0,0,0,0,0,0,0,0,0,0,0,0,0,0,0,0,0,-0.167614,0.000431726,1.00168,1,0,0,0,0,0,0,0,0,40.19753791,99.9890852,10075.97169,1
1380,21687.643,40.003431,100,10999.45606,359.997,0.376,-0.413,275.581,1.015,40.198068,99.99,9994.008789,180.002,-0.147,-0.009,159.315,0,-0.165461,0.000439774,1.00163,0,0,0,0,0,0,0,0,0,0,0,0,0,0,0,0,0,0,0,0,0,0,0,0,0,0,-0.165461,0.000439774,1.00163,1,0,0,0,0,0,0,0,0,40.19752362,99.98908536,10075.87418,1
1390,21683.312,40.003455,100,10999.45117,359.997,0.376,-0.415,275.564,1.015,40.198053,99.99,9993.929688,180.002,-0.147,-0.009,159.365,0,-0.163299,0.000447787,1.00158,0,0,0,0,0,0,0,0,0,0,0,0,0,0,0,0,0,0,0,0,0,0,0,0,0,0,-0.163299,0.000447787,1.00158,1,0,0,0,0,0,0,0,0,40.19750933,99.98908551,10075.77671,1
1400,21678.98,40.00348,100,10999.44629,359.997,0.377,-0.418,275.548,1.014,40.198039,99.99,9993.850586,180.002,-0.148,-0.009,159.414,0,-0.161621,0.000455763,1.00152,0,0,0,0,0,0,0,0,0,0,0,0,0,0,0,0,0,0,0,0,0,0,0,0,0,0,-0.161621,0.000455763,1.00152,1,0,0,0,0,0,0,0,0,40.19749503,99.98908567,10075.67927,1
1410,21674.649,40.003505,100,10999.44141,359.997,0.377,-0.42,275.531,1.015,40.198025,99.99,9993.770508,180.002,-0.149,-0.009,159.464,0,-0.166189,0.000463702,1.00145,0,0,0,0,0,0,0,0,0,0,0,0,0,0,0,0,0,0,0,0,0,0,0,0,0,0,-0.166189,0.000463702,1.00145,1,0,0,0,0,0,0,0,0,40.19748072,99.98908583,10075.58089,1
1420,21670.317,40.00353,100,10999.43652,359.997,0.377,-0.422,275.513,1.016,40.198011,99.99,9993.69043,180.002,-0.15,-0.01,159.514,0,-0.170133,0.000471602,1.00139,0,0,0,0,0,0,0,0,0,0,0,0,0,0,0,0,0,0,0,0,0,0,0,0,0,0,-0.170133,0.000471602,1.00139,1,0,0,0,0,0,0,0,0,40.19746642,99.98908598,10075.48255,1
1430,21665.985,40.003554,100,10999.43164,359.997,0.378,-0.424,275.496,1.016,40.197996,99.99,9993.609375,180.002,-0.15,-0.01,159.564,0,-0.170207,0.000479462,1.00129,0,0,0,0,0,0,0,0,0,0,0,0,0,0,0,0,0,0,0,0,0,0,0,0,0,0,-0.170207,0.000479462,1.00129,1,0,0,0,0,0,0,0,0,40.19745211,99.98908614,10075.38326,1
1440,21661.653,40.003579,100,10999.42676,359.997,0.378,-0.427,275.478,1.015,40.197982,99.99,9993.52832,180.002,-0.151,-0.01,159.614,0,-0.169697,0.000487283,1.00117,0,0,0,0,0,0,0,0,0,0,0,0,0,0,0,0,0,0,0,0,0,0,0,0,0,0,-0.169697,0.000487283,1.00117,1,0,0,0,0,0,0,0,0,40.19743779,99.98908629,10075.28401,1
1450,21657.32,40.003604,100,10999.42188,359.997,0.378,-0.429,275.461,1.015,40.197968,99.99,9993.447266,180.002,-0.152,-0.01,159.663,0,-0.169214,0.000495066,1.0011,0,0,0,0,0,0,0,0,0,0,0,0,0,0,0,0,0,0,0,0,0,0,0,0,0,0,-0.169214,0.000495066,1.0011,1,0,0,0,0,0,0,0,0,40.19742347,99.98908645,10075.18479,1
1460,21652.987,40.003629,100,10999.41797,359.997,0.378,-0.431,275.444,1.015,40.197953,99.99,9993.365234,180.002,-0.153,-0.01,159.713,0,-0.168744,0.000502811,1.00106,0,0,0,0,0,0,0,0,0,0,0,0,0,0,0,0,0,0,0,0,0,0,0,0,0,0,-0.168744,0.000502811,1.00106,1,0,0,0,0,0,0,0,0,40.19740915,99.98908661,10075.08463,1
1470,21648.654,40.003653,100,10999.41309,359.997,0.379,-0.433,275.427,1.015,40.197939,99.99,9993.283203,180.002,-0.153,-0.01,159.763,0,-0.166612,0.000510515,1.00097,0,0,0,0,0,0,0,0,0,0,0,0,0,0,0,0,0,0,0,0,0,0,0,0,0,0,-0.166612,0.000510515,1.00097,1,0,0,0,0,0,0,0,0,40.19739482,99.98908677,10074.98451,1
1480,21644.32,40.003678,100,10999.4082,359.997,0.379,-0.435,275.41,1.014,40.197925,99.99,9993.200195,180.003,-0.154,-0.01,159.813,0,-0.164459,0.000518179,1.00086,0,0,0,0,0,0,0,0,0,0,0,0,0,0,0,0,0,0,0,0,0,0,0,0,0,0,-0.164459,0.000518179,1.00086,1,0,0,0,0,0,0,0,0,40.19738048,99.98908693,10074.88344,1
1490,21639.987,40.003703,100,10999.40332,359.997,0.379,-0.437,275.394,1.014,40.19791,99.99,9993.117188,180.003,-0.155,-0.011,159.863,0,-0.162317,0.000525803,1.00078,0,0,0,0,0,0,0,0,0,0,0,0,0,0,0,0,0,0,0,0,0,0,0,0,0,0,-0.162317,0.000525803,1.00078,1,0,0,0,0,0,0,0,0,40.19736615,99.98908709,10074.7824,1
1500,21635.653,40.003728,100,10999.39844,359.997,0.379,-0.439,275.378,1.014,40.197896,99.99,9993.03418,180.003,-0.155,-0.011,159.913,0,-0.160609,0.000533387,1.00074,0,0,0,0,0,0,0,0,0,0,0,0,0,0,0,0,0,0,0,0,0,0,0,0,0,0,-0.160609,0.000533387,1.00074,1,0,0,0,0,0,0,0,0,40.1973518,99.98908724,10074.6814,1
1510,21631.318,40.003752,100,10999.39356,359.997,0.38,-0.441,275.362,1.013,40.197882,99.99,9992.950195,180.003,-0.156,-0.011,159.963,0,-0.158954,0.000540929,1.00067,0,0,0,0,0,0,0,0,0,0,0,0,0,0,0,0,0,0,0,0,0,0,0,0,0,0,-0.158954,0.000540929,1.00067,1,0,0,0,0,0,0,0,0,40.19733746,99.9890874,10074.57945,1
1520,21626.983,40.003777,100,10999.38867,359.997,0.38,-0.443,275.345,1.014,40.197867,99.99,9992.866211,180.003,-0.157,-0.011,160.013,0,-0.161484,0.000548429,1.00057,0,0,0,0,0,0,0,0,0,0,0,0,0,0,0,0,0,0,0,0,0,0,0,0,0,0,-0.161484,0.000548429,1.00057,1,0,0,0,0,0,0,0,0,40.19732311,99.98908756,10074.47754,1
1530,21622.648,40.003802,100,10999.38379,359.997,0.38,-0.445,275.329,1.013,40.197853,99.99,9992.782227,180.003,-0.157,-0.011,160.063,0,-0.161,0.000555887,1.00048,0,0,0,0,0,0,0,0,0,0,0,0,0,0,0,0,0,0,0,0,0,0,0,0,0,0,-0.161,0.000555887,1.00048,1,0,0,0,0,0,0,0,0,40.19730875,99.98908772,10074.37566,1
1540,21618.313,40.003826,100,10999.37988,359.997,0.38,-0.447,275.312,1.013,40.197839,99.99,9992.697266,180.003,-0.158,-0.011,160.113,0,-0.160516,0.000563302,1.00039,0,0,0,0,0,0,0,0,0,0,0,0,0,0,0,0,0,0,0,0,0,0,0,0,0,0,-0.160516,0.000563302,1.00039,1,0,0,0,0,0,0,0,0,40.1972944,99.98908789,10074.27283,1
1550,21613.978,40.003851,100,10999.375,359.997,0.38,-0.449,275.296,1.013,40.197824,99.99,9992.611328,180.003,-0.159,-0.011,160.163,0,-0.160035,0.000570675,1.0003,0,0,0,0,0,0,0,0,0,0,0,0,0,0,0,0,0,0,0,0,0,0,0,0,0,0,-0.160035,0.000570675,1.0003,1,0,0,0,0,0,0,0,0,40.19728003,99.98908805,10074.16907,1
1560,21609.642,40.003876,100,10999.37012,359.997,0.381,-0.451,275.28,1.013,40.19781,99.99,9992.526367,180.003,-0.16,-0.011,160.213,0,-0.159555,0.000578005,1.00022,0,0,0,0,0,0,0,0,0,0,0,0,0,0,0,0,0,0,0,0,0,0,0,0,0,0,-0.159555,0.000578005,1.00022,1,0,0,0,0,0,0,0,0,40.19726567,99.98908821,10074.0663,1
1570,21605.306,40.003901,100,10999.36523,359.997,0.381,-0.453,275.263,1.013,40.197795,99.99,9992.44043,180.003,-0.16,-0.012,160.263,0,-0.16402,0.000585293,1.00013,0,0,0,0,0,0,0,0,0,0,0,0,0,0,0,0,0,0,0,0,0,0,0,0,0,0,-0.16402,0.000585293,1.00013,1,0,0,0,0,0,0,0,0,40.19725129,99.98908837,10073.9626,1
1580,21600.969,40.003925,100,10999.36035,359.997,0.381,-0.455,275.246,1.014,40.197781,99.99,9992.353516,180.003,-0.161,-0.012,160.313,0,-0.166177,0.000592535,1.00003,0,0,0,0,0,0,0,0,0,0,0,0,0,0,0,0,0,0,0,0,0,0,0,0,0,0,-0.166177,0.000592535,1.00003,1,0,0,0,0,0,0,0,0,40.19723692,99.98908853,10073.85795,1
1590,21596.632,40.00395,100,10999.35547,359.997,0.381,-0.457,275.229,1.014,40.197767,99.99,9992.267578,180.003,-0.162,-0.012,160.363,0,-0.165675,0.000599733,0.99991,0,0,0,0,0,0,0,0,0,0,0,0,0,0,0,0,0,0,0,0,0,0,0,0,0,0,-0.165675,0.000599733,0.99991,1,0,0,0,0,0,0,0,0,40.19722254,99.98908869,10073.7543,1
1600,21592.295,40.003975,100,10999.35156,359.997,0.381,-0.459,275.212,1.013,40.197752,99.99,9992.179688,180.003,-0.162,-0.012,160.413,0,-0.165178,0.000606887,0.999791,0,0,0,0,0,0,0,0,0,0,0,0,0,0,0,0,0,0,0,0,0,0,0,0,0,0,-0.165178,0.000606887,0.999791,1,0,0,0,0,0,0,0,0,40.19720815,99.98908886,10073.64874,1
1610,21587.958,40.003999,100,10999.34668,359.997,0.382,-0.461,275.195,1.013,40.197738,99.99,9992.092773,180.003,-0.163,-0.012,160.463,0,-0.164702,0.000614,0.999714,0,0,0,0,0,0,0,0,0,0,0,0,0,0,0,0,0,0,0,0,0,0,0,0,0,0,-0.164702,0.000614,0.999714,1,0,0,0,0,0,0,0,0,40.19719376,99.98908902,10073.54418,1
1620,21583.621,40.004024,100,10999.3418,359.997,0.382,-0.462,275.178,1.013,40.197723,99.99,9992.004883,180.003,-0.164,-0.012,160.513,0,-0.164227,0.000621068,0.999641,0,0,0,0,0,0,0,0,0,0,0,0,0,0,0,0,0,0,0,0,0,0,0,0,0,0,-0.164227,0.000621068,0.999641,1,0,0,0,0,0,0,0,0,40.19717937,99.98908918,10073.43867,1
1630,21579.283,40.004049,100,10999.33691,359.997,0.382,-0.464,275.162,1.013,40.197709,99.99,9991.916992,180.003,-0.164,-0.012,160.563,0,-0.163736,0.000628091,0.999534,0,0,0,0,0,0,0,0,0,0,0,0,0,0,0,0,0,0,0,0,0,0,0,0,0,0,-0.163736,0.000628091,0.999534,1,0,0,0,0,0,0,0,0,40.19716497,99.98908935,10073.3332,1
1640,21574.944,40.004074,100,10999.33203,359.996,0.382,-0.466,275.145,1.013,40.197695,99.99,9991.828125,180.003,-0.165,-0.013,160.613,0,-0.163242,0.000635069,0.999418,0,0,0,0,0,0,0,0,0,0,0,0,0,0,0,0,0,0,0,0,0,0,0,0,0,0,-0.163242,0.000635069,0.999418,1,0,0,0,0,0,0,0,0,40.19715057,99.98908951,10073.22678,1
1650,21570.606,40.004098,100,10999.32715,359.996,0.382,-0.468,275.128,1.012,40.19768,99.99,9991.740234,180.003,-0.166,-0.013,160.663,0,-0.162762,0.000642004,0.999329,0,0,0,0,0,0,0,0,0,0,0,0,0,0,0,0,0,0,0,0,0,0,0,0,0,0,-0.162762,0.000642004,0.999329,1,0,0,0,0,0,0,0,0,40.19713617,99.98908968,10073.12136,1
1660,21566.267,40.004123,100,10999.32324,359.996,0.382,-0.469,275.112,1.012,40.197666,99.99,9991.650391,180.003,-0.166,-0.013,160.714,0,-0.162287,0.000648895,0.99925,0,0,0,0,0,0,0,0,0,0,0,0,0,0,0,0,0,0,0,0,0,0,0,0,0,0,-0.162287,0.000648895,0.99925,1,0,0,0,0,0,0,0,0,40.19712176,99.98908984,10073.01403,1
1670,21561.928,40.004148,100,10999.31836,359.996,0.383,-0.471,275.096,1.012,40.197651,99.99,9991.561523,180.003,-0.167,-0.013,160.764,0,-0.160179,0.00065574,0.999152,0,0,0,0,0,0,0,0,0,0,0,0,0,0,0,0,0,0,0,0,0,0,0,0,0,0,-0.160179,0.00065574,0.999152,1,0,0,0,0,0,0,0,0,40.19710734,99.98909001,10072.90769,1
1680,21557.589,40.004172,100,10999.31348,359.996,0.383,-0.473,275.08,1.012,40.197637,99.99,9991.47168,180.003,-0.168,-0.013,160.814,0,-0.158369,0.00066254,0.999043,0,0,0,0,0,0,0,0,0,0,0,0,0,0,0,0,0,0,0,0,0,0,0,0,0,0,-0.158369,0.00066254,0.999043,1,0,0,0,0,0,0,0,0,40.19709292,99.98909017,10072.80041,1
1690,21553.249,40.004197,100,10999.30859,359.996,0.383,-0.474,275.063,1.011,40.197623,99.99,9991.380859,180.003,-0.168,-0.013,160.864,0,-0.157609,0.000669296,0.998957,0,0,0,0,0,0,0,0,0,0,0,0,0,0,0,0,0,0,0,0,0,0,0,0,0,0,-0.157609,0.000669296,0.998957,1,0,0,0,0,0,0,0,0,40.1970785,99.98909034,10072.69219,1
1700,21548.909,40.004222,100,10999.30371,359.996,0.383,-0.476,275.047,1.011,40.197608,99.99,9991.291016,180.003,-0.169,-0.013,160.914,0,-0.15714,0.000676008,0.998886,0,0,0,0,0,0,0,0,0,0,0,0,0,0,0,0,0,0,0,0,0,0,0,0,0,0,-0.15714,0.000676008,0.998886,1,0,0,0,0,0,0,0,0,40.19706407,99.98909051,10072.58496,1
1710,21544.569,40.004247,100,10999.29981,359.996,0.383,-0.478,275.031,1.011,40.197594,99.99,9991.200195,180.003,-0.169,-0.014,160.965,0,-0.15666,0.000682673,0.998791,0,0,0,0,0,0,0,0,0,0,0,0,0,0,0,0,0,0,0,0,0,0,0,0,0,0,-0.15666,0.000682673,0.998791,1,0,0,0,0,0,0,0,0,40.19704964,99.98909067,10072.47679,1
1720,21540.228,40.004271,100,10999.29492,359.996,0.383,-0.479,275.015,1.011,40.197579,99.99,9991.108398,180.003,-0.17,-0.014,161.015,0,-0.156173,0.000689293,0.998679,0,0,0,0,0,0,0,0,0,0,0,0,0,0,0,0,0,0,0,0,0,0,0,0,0,0,-0.156173,0.000689293,0.998679,1,0,0,0,0,0,0,0,0,40.1970352,99.98909084,10072.36768,1
1730,21535.887,40.004296,100,10999.29004,359.996,0.383,-0.481,275,1.011,40.197565,99.99,9991.017578,180.003,-0.171,-0.014,161.065,0,-0.155693,0.000695868,0.998582,0,0,0,0,0,0,0,0,0,0,0,0,0,0,0,0,0,0,0,0,0,0,0,0,0,0,-0.155693,0.000695868,0.998582,1,0,0,0,0,0,0,0,0,40.19702076,99.98909101,10072.25956,1
1740,21531.546,40.004321,100,10999.28516,359.996,0.383,-0.482,274.984,1.01,40.19755,99.99,9990.925781,180.003,-0.171,-0.014,161.115,0,-0.155222,0.000702398,0.998502,0,0,0,0,0,0,0,0,0,0,0,0,0,0,0,0,0,0,0,0,0,0,0,0,0,0,-0.155222,0.000702398,0.998502,1,0,0,0,0,0,0,0,0,40.19700632,99.98909117,10072.1505,1
1750,21527.204,40.004345,100,10999.28125,359.996,0.384,-0.484,274.968,1.01,40.197536,99.99,9990.833008,180.003,-0.172,-0.014,161.166,0,-0.154746,0.000708883,0.998412,0,0,0,0,0,0,0,0,0,0,0,0,0,0,0,0,0,0,0,0,0,0,0,0,0,0,-0.154746,0.000708883,0.998412,1,0,0,0,0,0,0,0,0,40.19699187,99.98909134,10072.04049,1
1760,21522.862,40.00437,100,10999.27637,359.996,0.384,-0.485,274.952,1.01,40.197521,99.99,9990.741211,180.003,-0.173,-0.014,161.216,0,-0.15318,0.000715321,0.998307,0,0,0,0,0,0,0,0,0,0,0,0,0,0,0,0,0,0,0,0,0,0,0,0,0,0,-0.15318,0.000715321,0.998307,1,0,0,0,0,0,0,0,0,40.19697741,99.98909151,10071.93148,1
1770,21518.52,40.004395,100,10999.27148,359.996,0.384,-0.487,274.937,1.01,40.197507,99.99,9990.648438,180.003,-0.173,-0.014,161.266,0,-0.152701,0.000721714,0.998207,0,0,0,0,0,0,0,0,0,0,0,0,0,0,0,0,0,0,0,0,0,0,0,0,0,0,-0.152701,0.000721714,0.998207,1,0,0,0,0,0,0,0,0,40.19696296,99.98909168,10071.82152,1
1780,21514.178,40.004419,100,10999.2666,359.996,0.384,-0.488,274.921,1.01,40.197493,99.99,9990.554688,180.004,-0.174,-0.014,161.317,0,-0.152232,0.000728063,0.998128,0,0,0,0,0,0,0,0,0,0,0,0,0,0,0,0,0,0,0,0,0,0,0,0,0,0,-0.152232,0.000728063,0.998128,1,0,0,0,0,0,0,0,0,40.19694849,99.98909185,10071.71061,1
1790,21509.835,40.004444,100,10999.26172,359.996,0.384,-0.49,274.906,1.01,40.197478,99.99,9990.461914,180.004,-0.175,-0.015,161.367,0,-0.151759,0.000734366,0.998043,0,0,0,0,0,0,0,0,0,0,0,0,0,0,0,0,0,0,0,0,0,0,0,0,0,0,-0.151759,0.000734366,0.998043,1,0,0,0,0,0,0,0,0,40.19693403,99.98909202,10071.6007,1
1800,21505.492,40.004469,100,10999.25781,359.996,0.384,-0.491,274.89,1.009,40.197464,99.99,9990.368164,180.004,-0.175,-0.015,161.417,0,-0.151278,0.000740623,0.997939,0,0,0,0,0,0,0,0,0,0,0,0,0,0,0,0,0,0,0,0,0,0,0,0,0,0,-0.151278,0.000740623,0.997939,1,0,0,0,0,0,0,0,0,40.19691956,99.98909219,10071.48985,1
1810,21501.149,40.004493,100,10999.25293,359.996,0.384,-0.493,274.875,1.009,40.197449,99.99,9990.273438,180.004,-0.176,-0.015,161.468,0,-0.150799,0.000746834,0.997838,0,0,0,0,0,0,0,0,0,0,0,0,0,0,0,0,0,0,0,0,0,0,0,0,0,0,-0.150799,0.000746834,0.997838,1,0,0,0,0,0,0,0,0,40.19690508,99.98909236,10071.37804,1
1820,21496.805,40.004518,100,10999.24805,359.996,0.384,-0.494,274.86,1.009,40.197435,99.99,9990.179688,180.004,-0.176,-0.015,161.518,0,-0.148682,0.000753001,0.997752,0,0,0,0,0,0,0,0,0,0,0,0,0,0,0,0,0,0,0,0,0,0,0,0,0,0,-0.148682,0.000753001,0.997752,1,0,0,0,0,0,0,0,0,40.1968906,99.98909253,10071.26724,1
1830,21492.461,40.004543,100,10999.24316,359.996,0.385,-0.496,274.845,1.008,40.19742,99.99,9990.084961,180.004,-0.177,-0.015,161.569,0,-0.146557,0.000759123,0.997667,0,0,0,0,0,0,0,0,0,0,0,0,0,0,0,0,0,0,0,0,0,0,0,0,0,0,-0.146557,0.000759123,0.997667,1,0,0,0,0,0,0,0,0,40.19687612,99.9890927,10071.15548,1
1840,21488.117,40.004567,100,10999.23926,359.996,0.385,-0.497,274.83,1.008,40.197406,99.99,9989.989258,180.004,-0.178,-0.015,161.619,0,-0.144423,0.0007652,0.997582,0,0,0,0,0,0,0,0,0,0,0,0,0,0,0,0,0,0,0,0,0,0,0,0,0,0,-0.144423,0.0007652,0.997582,1,0,0,0,0,0,0,0,0,40.19686163,99.98909287,10071.04278,1
1850,21483.772,40.004592,100,10999.23438,359.996,0.385,-0.498,274.815,1.008,40.197391,99.99,9989.894531,180.004,-0.178,-0.015,161.67,0,-0.142713,0.000771231,0.997498,0,0,0,0,0,0,0,0,0,0,0,0,0,0,0,0,0,0,0,0,0,0,0,0,0,0,-0.142713,0.000771231,0.997498,1,0,0,0,0,0,0,0,0,40.19684714,99.98909304,10070.93107,1
1860,21479.427,40.004617,100,10999.22949,359.996,0.385,-0.5,274.801,1.007,40.197377,99.99,9989.798828,180.004,-0.179,-0.016,161.72,0,-0.141067,0.000777218,0.997417,0,0,0,0,0,0,0,0,0,0,0,0,0,0,0,0,0,0,0,0,0,0,0,0,0,0,-0.141067,0.000777218,0.997417,1,0,0,0,0,0,0,0,0,40.19683264,99.98909321,10070.81841,1
1870,21475.082,40.004642,100,10999.22461,359.996,0.385,-0.501,274.786,1.008,40.197362,99.99,9989.702148,180.004,-0.179,-0.016,161.771,0,-0.145607,0.00078316,0.997334,0,0,0,0,0,0,0,0,0,0,0,0,0,0,0,0,0,0,0,0,0,0,0,0,0,0,-0.145607,0.00078316,0.997334,1,0,0,0,0,0,0,0,0,40.19681814,99.98909338,10070.7048,1
1880,21470.736,40.004666,100,10999.2207,359.996,0.385,-0.502,274.77,1.008,40.197348,99.99,9989.606445,180.004,-0.18,-0.016,161.821,0,-0.149536,0.000789054,0.997249,0,0,0,0,0,0,0,0,0,0,0,0,0,0,0,0,0,0,0,0,0,0,0,0,0,0,-0.149536,0.000789054,0.997249,1,0,0,0,0,0,0,0,0,40.19680363,99.98909355,10070.5922,1
1890,21466.39,40.004691,100,10999.21582,359.996,0.385,-0.504,274.755,1.009,40.197333,99.99,9989.509766,180.004,-0.181,-0.016,161.872,0,-0.151335,0.000794901,0.997125,0,0,0,0,0,0,0,0,0,0,0,0,0,0,0,0,0,0,0,0,0,0,0,0,0,0,-0.151335,0.000794901,0.997125,1,0,0,0,0,0,0,0,0,40.19678912,99.98909372,10070.47863,1
1900,21462.044,40.004716,100,10999.21094,359.996,0.385,-0.505,274.739,1.008,40.197319,99.99,9989.413086,180.004,-0.181,-0.016,161.922,0,-0.15084,0.000800702,0.996993,0,0,0,0,0,0,0,0,0,0,0,0,0,0,0,0,0,0,0,0,0,0,0,0,0,0,-0.15084,0.000800702,0.996993,1,0,0,0,0,0,0,0,0,40.19677461,99.9890939,10070.3651,1
1910,21457.697,40.00474,100,10999.20606,359.996,0.385,-0.506,274.724,1.008,40.197304,99.99,9989.31543,180.004,-0.182,-0.016,161.973,0,-0.150366,0.00080646,0.996901,0,0,0,0,0,0,0,0,0,0,0,0,0,0,0,0,0,0,0,0,0,0,0,0,0,0,-0.150366,0.00080646,0.996901,1,0,0,0,0,0,0,0,0,40.19676009,99.98909407,10070.25061,1
1920,21453.35,40.004765,100,10999.20215,359.995,0.385,-0.507,274.709,1.008,40.19729,99.99,9989.217773,180.004,-0.182,-0.016,162.023,0,-0.148284,0.000812176,0.996839,0,0,0,0,0,0,0,0,0,0,0,0,0,0,0,0,0,0,0,0,0,0,0,0,0,0,-0.148284,0.000812176,0.996839,1,0,0,0,0,0,0,0,0,40.19674556,99.98909424,10070.13614,1
1930,21449.003,40.00479,100,10999.19727,359.995,0.385,-0.509,274.694,1.007,40.197275,99.99,9989.120117,180.004,-0.183,-0.016,162.074,0,-0.14618,0.000817845,0.99675,0,0,0,0,0,0,0,0,0,0,0,0,0,0,0,0,0,0,0,0,0,0,0,0,0,0,-0.14618,0.000817845,0.99675,1,0,0,0,0,0,0,0,0,40.19673104,99.98909441,10070.0217,1
1940,21444.656,40.004814,100,10999.19238,359.995,0.385,-0.51,274.679,1.007,40.197261,99.99,9989.022461,180.004,-0.184,-0.017,162.124,0,-0.14406,0.000823469,0.996645,0,0,0,0,0,0,0,0,0,0,0,0,0,0,0,0,0,0,0,0,0,0,0,0,0,0,-0.14406,0.000823469,0.996645,1,0,0,0,0,0,0,0,0,40.1967165,99.98909459,10069.90727,1
1950,21440.308,40.004839,100,10999.1875,359.995,0.386,-0.511,274.665,1.007,40.197246,99.99,9988.923828,180.004,-0.184,-0.017,162.175,0,-0.14214,0.00082905,0.996564,0,0,0,0,0,0,0,0,0,0,0,0,0,0,0,0,0,0,0,0,0,0,0,0,0,0,-0.14214,0.00082905,0.996564,1,0,0,0,0,0,0,0,0,40.19670197,99.98909476,10069.7919,1
1960,21435.96,40.004864,100,10999.18359,359.995,0.386,-0.512,274.65,1.006,40.197231,99.99,9988.825195,180.004,-0.185,-0.017,162.225,0,-0.140518,0.000834588,0.9965,0,0,0,0,0,0,0,0,0,0,0,0,0,0,0,0,0,0,0,0,0,0,0,0,0,0,-0.140518,0.000834588,0.9965,1,0,0,0,0,0,0,0,0,40.19668743,99.98909494,10069.67655,1
1970,21431.611,40.004888,100,10999.17871,359.995,0.386,-0.513,274.636,1.006,40.197217,99.99,9988.726563,180.004,-0.185,-0.017,162.276,0,-0.138391,0.000840081,0.996424,0,0,0,0,0,0,0,0,0,0,0,0,0,0,0,0,0,0,0,0,0,0,0,0,0,0,-0.138391,0.000840081,0.996424,1,0,0,0,0,0,0,0,0,40.19667288,99.98909511,10069.56122,1
1980,21425.651,40.004913,100,10999.17383,359.995,0.386,-0.515,274.622,1.006,40.197188,99.99,9988.527344,180.004,-0.186,-0.017,162.377,0,-0.136355,0.000845528,0.99633,0,0,0,0,0,0,0,0,0,0,0,0,0,0,0,0,0,0,0,0,0,0,0,0,0,0,-0.136355,0.000845528,0.99633,1,0,0,0,0,0,0,0,0,40.19664378,99.98909535,10069.33991,1
